[{"id":3099,"name":"Barley and Hops Grill","brewery_type":"brewpub","street":"5473 Urbana Pike","city":"Frederick","state":"Maryland","postal_code":"21704-7275","country":"United States","longitude":"-77.3995969","latitude":"39.38204685","phone":"3016685555","website_url":"http://www.barleyandhops.net","updated_at":"2018-08-24T00:40:19.465Z","tag_list":[]},{"id":3105,"name":"Brewer's Alley Restaurant and Brewery","brewery_type":"brewpub","street":"124 N Market St","city":"Frederick","state":"Maryland","postal_code":"21701-5422","country":"United States","longitude":"-77.4104551496397","latitude":"39.41607325","phone":"3016310089","website_url":"http://www.brewers-alley.com","updated_at":"2018-08-24T00:40:21.333Z","tag_list":[]},{"id":3132,"name":"Evolution Craft Brewing Co","brewery_type":"regional","street":"200 Elmwood St","city":"Salisbury","state":"Maryland","postal_code":"21804-5522","country":"United States","longitude":"-75.595254","latitude":"38.361979","phone":"4432602337","website_url":"http://www.evolutioncraftbrewing.com","updated_at":"2018-08-24T00:40:29.438Z","tag_list":[]},{"id":3136,"name":"Flying Dog Brewery","brewery_type":"regional","street":"4607 Wedgewood Blvd","city":"Frederick","state":"Maryland","postal_code":"21703-7120","country":"United States","longitude":"-77.4267910677553","latitude":"39.3628322","phone":"3016947899","website_url":"http://www.flyingdogbrewery.com","updated_at":"2018-08-24T00:40:30.783Z","tag_list":[]},{"id":3137,"name":"Franklins General Store","brewery_type":"micro","street":"5123 Baltimore Ave","city":"Hyattsville","state":"Maryland","postal_code":"20781-2042","country":"United States","longitude":"-76.9407411387391","latitude":"38.9519439895478","phone":"3019272740","website_url":"http://Franklinsbrewery.com","updated_at":"2018-08-24T00:40:31.278Z","tag_list":[]},{"id":3146,"name":"Greene Growlers","brewery_type":"brewpub","street":"227 E Diamond Ave","city":"Gaithersburg","state":"Maryland","postal_code":"20877","country":"United States","longitude":"-77.1935558364428","latitude":"39.1419364","phone":"2402616196","website_url":"http://www.greenegrowlers.com","updated_at":"2018-08-24T00:40:34.510Z","tag_list":[]},{"id":3176,"name":"Pub Dog Brewing Company","brewery_type":"micro","street":"1203 New Windsor Rd","city":"Westminster","state":"Maryland","postal_code":"21158-6704","country":"United States","longitude":"-77.0522979602972","latitude":"39.5504519724238","phone":"4108483993","website_url":"http://www.pubdog.com","updated_at":"2018-08-24T00:40:44.020Z","tag_list":[]},{"id":3184,"name":"Saints Row Brewing","brewery_type":"micro","street":"1211 Taft St","city":"Rockville","state":"Maryland","postal_code":"20850-1344","country":"United States","longitude":"-77.1340180802385","latitude":"39.0936171503817","phone":"","website_url":"http://www.saintsrowbeer.com","updated_at":"2018-08-24T00:40:47.652Z","tag_list":[]},{"id":3196,"name":"The Brewer's Art / Old Line Brewery LLC","brewery_type":"brewpub","street":"1106 N Charles St","city":"Baltimore","state":"Maryland","postal_code":"21201-5557","country":"United States","longitude":"-76.6146068","latitude":"39.303716","phone":"","website_url":"http://www.thebrewersart.com","updated_at":"2018-08-24T00:40:52.085Z","tag_list":[]},{"id":3144,"name":"Grail Point Brewery","brewery_type":"proprietor","street":"","city":"Emmitsburg","state":"Maryland","postal_code":"21727-0702","country":"United States","longitude":null,"latitude":null,"phone":"2408442379","website_url":"http://www.grailpointbeer.co","updated_at":"2018-08-11T21:37:36.272Z","tag_list":[]},{"id":3090,"name":"1623 Brewing CO, llc","brewery_type":"contract","street":"1146 colonel Joshua Ct","city":"Westminister","state":"Maryland","postal_code":"21157","country":"United States","longitude":null,"latitude":null,"phone":"","website_url":"","updated_at":"2018-08-11T21:37:34.588Z","tag_list":[]},{"id":3091,"name":"7 Locks Brewing","brewery_type":"micro","street":"12227 Wilkins Ave","city":"Rockville","state":"Maryland","postal_code":"20852-1833","country":"United States","longitude":null,"latitude":null,"phone":"3018417123","website_url":"http://www.7locksbrewing.com","updated_at":"2018-08-11T21:37:34.634Z","tag_list":[]},{"id":3093,"name":"Astro Lab Brewing","brewery_type":"planning","street":"","city":"Silver Spring","state":"Maryland","postal_code":"20910-4519","country":"United States","longitude":null,"latitude":null,"phone":"3106910475","website_url":"http://www.astrolabbrewing.com","updated_at":"2018-08-11T21:37:34.692Z","tag_list":[]},{"id":3094,"name":"Attaboy Beer","brewery_type":"micro","street":"400 Sagner Ave Ste 400","city":"Frederick","state":"Maryland","postal_code":"21701-6083","country":"United States","longitude":null,"latitude":null,"phone":"4157106459","website_url":"","updated_at":"2018-08-11T21:37:34.727Z","tag_list":[]},{"id":3095,"name":"B.C. Brewery","brewery_type":"micro","street":"10950 Gilroy Rd Ste F","city":"Hunt Valley","state":"Maryland","postal_code":"21031-1327","country":"United States","longitude":null,"latitude":null,"phone":"4433913847","website_url":"http://www.bcbrewerymd.com","updated_at":"2018-08-11T21:37:34.756Z","tag_list":[]},{"id":3096,"name":"Back Creek Brewing Company","brewery_type":"planning","street":"","city":"Annapolis","state":"Maryland","postal_code":"21401-4019","country":"United States","longitude":null,"latitude":null,"phone":"4103206904","website_url":"http://www.backcreekbrewing.com","updated_at":"2018-08-11T21:37:34.800Z","tag_list":[]},{"id":3097,"name":"Backshore Brewing Co.","brewery_type":"brewpub","street":"913 Atlantic Ave","city":"Ocean City","state":"Maryland","postal_code":"21842-6689","country":"United States","longitude":null,"latitude":null,"phone":"4102890008","website_url":"http://www.BackshoreBrew.com","updated_at":"2018-08-11T21:37:34.836Z","tag_list":[]},{"id":3098,"name":"Baltimore Washington Beer Works","brewery_type":"contract","street":"2500 Grays Rd","city":"Dundalk","state":"Maryland","postal_code":"21222","country":"United States","longitude":null,"latitude":null,"phone":"4438476223","website_url":"http://www.ravenbeer.com","updated_at":"2018-08-11T21:37:34.864Z","tag_list":[]},{"id":3100,"name":"Big Truck Brewery","brewery_type":"planning","street":"","city":"Parkton","state":"Maryland","postal_code":"21120-9004","country":"United States","longitude":null,"latitude":null,"phone":"4436775451","website_url":"http://www.bigtruckfarms.com","updated_at":"2018-08-11T21:37:34.921Z","tag_list":[]},{"id":3101,"name":"Bird Nickel Brewing Company","brewery_type":"planning","street":"","city":"Easton","state":"Maryland","postal_code":"21601-3904","country":"United States","longitude":null,"latitude":null,"phone":"4103106042","website_url":"","updated_at":"2018-08-11T21:37:34.949Z","tag_list":[]}]