[{"id":1750,"name":"Iron Hill Brewery & Restaurant - Newark","brewery_type":"brewpub","street":"147 East Main St","city":"Newark","state":"Delaware","postal_code":"19711-7313","country":"United States","longitude":"-75.7468068","latitude":"39.6834128","phone":"3022669000","website_url":"http://www.ironhillbrewery.com","updated_at":"2018-08-24T00:26:04.959Z","tag_list":[]},{"id":1755,"name":"Mispillion River Brewing","brewery_type":"micro","street":"255 Mullet Run St","city":"Milford","state":"Delaware","postal_code":"19963","country":"United States","longitude":"-75.450838711807","latitude":"38.9307888466891","phone":"3024916623","website_url":"http://www.mispillionriverbrewing.com","updated_at":"2018-08-24T00:26:07.476Z","tag_list":[]},{"id":1736,"name":"3rd Wave Brewing Co","brewery_type":"micro","street":"501 N Bi State Blvd","city":"Delmar","state":"Delaware","postal_code":"19940-1106","country":"United States","longitude":null,"latitude":null,"phone":"3029070423","website_url":"http://www.3rdwavebrewingco.com","updated_at":"2018-08-11T21:36:48.053Z","tag_list":[]},{"id":1737,"name":"Argilla Brewing Co @ Pietro's Pizza","brewery_type":"brewpub","street":"2667 Kirkwood Hwy","city":"Newark","state":"Delaware","postal_code":"19711-7242","country":"United States","longitude":null,"latitude":null,"phone":"3027318200","website_url":"http://www.argillabrewing.com","updated_at":"2018-08-11T21:36:48.081Z","tag_list":[]},{"id":1738,"name":"Bellefonte Brewing Co","brewery_type":"micro","street":"3605 Old Capitol Trl Unit C7/C8","city":"Wilmington","state":"Delaware","postal_code":"19808-6043","country":"United States","longitude":null,"latitude":null,"phone":"3025401055","website_url":"http://www.bellefontebrewingco.com","updated_at":"2018-08-11T21:36:48.126Z","tag_list":[]},{"id":1740,"name":"Brewery in Planning - REHOBOTH","brewery_type":"planning","street":"","city":"Rehoboth Beach","state":"Delaware","postal_code":"19971-0049","country":"United States","longitude":null,"latitude":null,"phone":"3525625449","website_url":"http://www.sodelconcepts.com","updated_at":"2018-08-11T21:36:48.217Z","tag_list":[]},{"id":1742,"name":"Crooked Hammock Brewery","brewery_type":"brewpub","street":"36707 Crooked Hammock Way","city":"Lewes","state":"Delaware","postal_code":"19958-4877","country":"United States","longitude":null,"latitude":null,"phone":"","website_url":"","updated_at":"2018-08-11T21:36:48.282Z","tag_list":[]},{"id":1748,"name":"First State Brewing Company","brewery_type":"planning","street":"","city":"Middletown","state":"Delaware","postal_code":"19709-1482","country":"United States","longitude":null,"latitude":null,"phone":"3022859535","website_url":"http://www.firststatebrewing.com","updated_at":"2018-08-11T21:36:48.522Z","tag_list":[]},{"id":1734,"name":"16 Mile Brewing Co","brewery_type":"micro","street":"413 S Bedford St","city":"Georgetown","state":"Delaware","postal_code":"19947-1849","country":"United States","longitude":"-75.3781643624989","latitude":"38.6788938","phone":"3022538816","website_url":"http://www.16milebrewery.com","updated_at":"2018-08-24T00:25:57.579Z","tag_list":[]},{"id":1735,"name":"38Â°-75Â° Brewing","brewery_type":"brewpub","street":"2000 Coastal Highway STE 105","city":"Rehoboth Beach","state":"Delaware","postal_code":"19971","country":"United States","longitude":"-75.090191","latitude":"38.7074994","phone":"3022278519","website_url":"","updated_at":"2018-08-24T00:25:58.195Z","tag_list":[]},{"id":1739,"name":"Blue Earl Brewing Company","brewery_type":"micro","street":"210 Artisan Dr","city":"Smyrna","state":"Delaware","postal_code":"19977-3715","country":"United States","longitude":"-75.6241805555556","latitude":"39.2809684444444","phone":"","website_url":"http://www.blueearlbrewing.com","updated_at":"2018-08-24T00:26:00.268Z","tag_list":[]},{"id":1741,"name":"Brick Works Brewing and Eats","brewery_type":"brewpub","street":"230 S Dupont Blvd","city":"Smyrna","state":"Delaware","postal_code":"19977-1573","country":"United States","longitude":"-75.6008012376838","latitude":"39.298259951947","phone":"3025082523","website_url":"http://www.brickworksde.com","updated_at":"2018-08-24T00:26:00.909Z","tag_list":[]},{"id":1743,"name":"Dew Point Brewing","brewery_type":"brewpub","street":"2878 Creek Rd","city":"Yorklyn","state":"Delaware","postal_code":"19736-","country":"United States","longitude":"-75.6729188","latitude":"39.8100606","phone":"3025183636","website_url":"http://www.dewpointbrewing.com","updated_at":"2018-08-24T00:26:01.984Z","tag_list":[]},{"id":1744,"name":"Dewey Beer Co.","brewery_type":"brewpub","street":"2100 Coastal Hwy","city":"Dewey Beach","state":"Delaware","postal_code":"19971-2317","country":"United States","longitude":"-75.07497503008","latitude":"38.6961465","phone":"3022271182","website_url":"http://www.deweybeerco.com","updated_at":"2018-08-24T00:26:02.659Z","tag_list":[]},{"id":1745,"name":"Dogfish Head Brewings & Eats","brewery_type":"brewpub","street":"320 Rehoboth Ave","city":"Rehoboth Beach","state":"Delaware","postal_code":"19971-3108","country":"United States","longitude":"-75.08731545","latitude":"38.7151767","phone":"3022262739","website_url":"http://www.dogfish.com","updated_at":"2018-08-24T00:26:03.158Z","tag_list":[]},{"id":1746,"name":"Dogfish Head Craft Brewery","brewery_type":"regional","street":"6 Cannery Village Ctr","city":"Milton","state":"Delaware","postal_code":"19968-1308","country":"United States","longitude":"-75.3115820590213","latitude":"38.76691205","phone":"3026841000","website_url":"http://www.dogfish.com","updated_at":"2018-08-24T00:26:03.880Z","tag_list":[]},{"id":1747,"name":"Fins Big Oyster Brewery","brewery_type":"brewpub","street":"19269 Coastal Hwy","city":"Rehoboth Beach","state":"Delaware","postal_code":"19971-6113","country":"United States","longitude":"-75.090191","latitude":"38.7074994","phone":"3022902410","website_url":"http://bigoysterbrewery.com","updated_at":"2018-08-24T00:26:04.410Z","tag_list":[]},{"id":1751,"name":"Iron Hill Brewery & Restaurant - Rehoboth Beach","brewery_type":"brewpub","street":"19815 Coastal Hwy","city":"Rehoboth Beach","state":"Delaware","postal_code":"19971","country":"United States","longitude":"-75.090191","latitude":"38.7074994","phone":"3022608000","website_url":"http://www.ironhillbrewery.com","updated_at":"2018-08-24T00:26:05.514Z","tag_list":[]},{"id":1752,"name":"Iron Hill Brewery & Restaurant - Wilmington","brewery_type":"brewpub","street":"620 Justison St","city":"Wilmington","state":"Delaware","postal_code":"19801-5141","country":"United States","longitude":null,"latitude":null,"phone":"3026588200","website_url":"http://www.ironhillbrewery.com","updated_at":"2018-08-11T21:36:48.692Z","tag_list":[]},{"id":1753,"name":"Midnight Oil Brewing","brewery_type":"micro","street":"674 Pencader Dr","city":"Newark","state":"Delaware","postal_code":"19702","country":"United States","longitude":null,"latitude":null,"phone":"3022867641","website_url":"","updated_at":"2018-08-11T21:36:48.725Z","tag_list":[]}]