[{"id":6282,"name":"Spring House Brewery","brewery_type":"micro","street":"209 Hazel St","city":"Lancaster","state":"Pennsylvania","postal_code":"17603-5629","country":"United States","longitude":"-76.3071090416667","latitude":"40.029367375","phone":"7178720925","website_url":"http://www.springhousebeer.com","updated_at":"2018-08-24T15:49:13.355Z","tag_list":[]},{"id":5999,"name":"Allegheny City Brewing","brewery_type":"micro","street":"507 Foreland St","city":"Pittsburgh","state":"Pennsylvania","postal_code":"15212-4910","country":"United States","longitude":"-80.0006107346519","latitude":"40.454249330209","phone":"4129043732","website_url":"http://www.alleghenycitybrewing.com","updated_at":"2018-08-24T16:06:09.640Z","tag_list":[]},{"id":6014,"name":"Barley Creek Brewing Co","brewery_type":"brewpub","street":"1774 Sullivan Trl","city":"Tannersville","state":"Pennsylvania","postal_code":"18372-7893","country":"United States","longitude":"-75.3289057481617","latitude":"41.05236395","phone":"5706299399","website_url":"http://www.barleycreek.com","updated_at":"2018-08-24T16:06:28.598Z","tag_list":[]},{"id":6053,"name":"Brewtus Brewing Co","brewery_type":"micro","street":"23 Chestnut Ave","city":"Sharon","state":"Pennsylvania","postal_code":"16146-","country":"United States","longitude":"-80.5074993646832","latitude":"41.2326788756257","phone":"7243086293","website_url":"http://www.brewtusbrewing.com","updated_at":"2018-08-24T16:07:05.490Z","tag_list":[]},{"id":6063,"name":"Butler Brew Works","brewery_type":"brewpub","street":"101 S Main St","city":"Butler","state":"Pennsylvania","postal_code":"16001-5907","country":"United States","longitude":"-79.895238","latitude":"40.860914","phone":"7242645347","website_url":"http://www.butlerbrewworks.com","updated_at":"2018-08-24T16:07:19.649Z","tag_list":[]},{"id":6082,"name":"Couch Brewery","brewery_type":"micro","street":"1351 Washington Blvd","city":"Pittsburgh","state":"Pennsylvania","postal_code":"15206-1801","country":"United States","longitude":"-79.9090141","latitude":"40.4695304","phone":"4124411724","website_url":"http://www.couchbrewery.com","updated_at":"2018-08-24T16:07:49.623Z","tag_list":[]},{"id":6083,"name":"Covered Bridge Brewhaus Taproom","brewery_type":"micro","street":"506 N 8th St","city":"Shamokin","state":"Pennsylvania","postal_code":"17872-5302","country":"United States","longitude":"-76.5568208393969","latitude":"40.7907603702511","phone":"5702054867","website_url":"http://squareup.com/store/covered-bridge-brewhaus","updated_at":"2018-08-24T16:07:51.088Z","tag_list":[]},{"id":6095,"name":"Depot Saloon","brewery_type":"brewpub","street":"9 S Race St","city":"Greenville","state":"Pennsylvania","postal_code":"16125-2213","country":"United States","longitude":"-80.390239","latitude":"41.40444","phone":"7245884201","website_url":"http://www.depotsaloon.com","updated_at":"2018-08-24T16:08:07.573Z","tag_list":[]},{"id":6105,"name":"Earth Bread + Brewery","brewery_type":"brewpub","street":"7136 Germantown Ave","city":"Philadelphia","state":"Pennsylvania","postal_code":"19119-1843","country":"United States","longitude":"-75.1903546","latitude":"40.0591996","phone":"2152426666","website_url":"http://www.earthbreadbrewery.com","updated_at":"2018-08-24T16:08:19.580Z","tag_list":[]},{"id":6126,"name":"GearHouse Brewing Company","brewery_type":"brewpub","street":"253 Grant St","city":"Chambersburg","state":"Pennsylvania","postal_code":"17201-1627","country":"United States","longitude":"-77.6567421470779","latitude":"39.9412217960911","phone":"8034226145","website_url":"http://www.gearhousebrewingco.com","updated_at":"2018-08-24T16:08:48.102Z","tag_list":[]},{"id":6128,"name":"Golden Avalanche Brewing Co","brewery_type":"brewpub","street":"272 W Main St","city":"Kutztown","state":"Pennsylvania","postal_code":"19530-1604","country":"United States","longitude":"-75.7780207","latitude":"40.5164127","phone":"6106839600","website_url":"http://www.kutztowntavern.com/GoldenAvalancheBrewery","updated_at":"2018-08-24T16:08:49.709Z","tag_list":[]},{"id":6144,"name":"Hofbrauhaus Pittsburgh","brewery_type":"brewpub","street":"2705 S Water St","city":"Pittsburgh","state":"Pennsylvania","postal_code":"15203","country":"United States","longitude":"-79.9639442","latitude":"40.4279919","phone":"4122242328","website_url":"http://www.hofbrauhauspittsburgh.com","updated_at":"2018-08-24T16:09:09.168Z","tag_list":[]},{"id":6151,"name":"Insurrection Aleworks","brewery_type":"micro","street":"1635 E Railroad St","city":"Heidelberg","state":"Pennsylvania","postal_code":"15106-4026","country":"United States","longitude":"-80.0875544081633","latitude":"40.3926401428571","phone":"4122762030","website_url":"http://insurrectionaleworks.com","updated_at":"2018-08-24T16:09:16.906Z","tag_list":[]},{"id":6183,"name":"Lion Brewery Inc, The","brewery_type":"regional","street":"700 N Pennsylvania Ave","city":"Wilkes Barre","state":"Pennsylvania","postal_code":"18705-2451","country":"United States","longitude":"-75.859363","latitude":"41.254896","phone":"5708238801","website_url":"http://www.lionbrewery.com","updated_at":"2018-08-24T16:09:56.820Z","tag_list":[]},{"id":6186,"name":"Lost Tavern Brewing","brewery_type":"micro","street":"782 Main St","city":"Hellertown","state":"Pennsylvania","postal_code":"18055-1540","country":"United States","longitude":"-75.3411606","latitude":"40.5809687","phone":"4848513980","website_url":"http://www.losttavernbrewing.com","updated_at":"2018-08-24T16:10:02.419Z","tag_list":[]},{"id":6190,"name":"Mad Chef Craft Brewing","brewery_type":"brewpub","street":"2023 Miller Rd","city":"East Petersburg","state":"Pennsylvania","postal_code":"17520-1624","country":"United States","longitude":"-76.3496026006417","latitude":"40.0936698487036","phone":"7172836469","website_url":"http://www.madchefcraftbrewing.com","updated_at":"2018-08-24T16:10:06.847Z","tag_list":[]},{"id":6194,"name":"Market Cross Pub & Brewery","brewery_type":"micro","street":"113 N Hanover St","city":"Carlisle","state":"Pennsylvania","postal_code":"17013-2422","country":"United States","longitude":"-77.1887288571429","latitude":"40.2033574285714","phone":"7172581234","website_url":"http://www.marketcrosspub.com","updated_at":"2018-08-24T16:10:12.931Z","tag_list":[]},{"id":6226,"name":"Pennsylvania Brewing Co","brewery_type":"micro","street":"800 Vinial St","city":"Pittsburgh","state":"Pennsylvania","postal_code":"15212-5151","country":"United States","longitude":"-79.9916372219515","latitude":"40.457132","phone":"4122379402","website_url":"http://www.pennbrew.com","updated_at":"2018-08-24T16:10:58.189Z","tag_list":[]},{"id":6239,"name":"Reclamation Brewing Company","brewery_type":"brewpub","street":"221 S Main St","city":"Butler","state":"Pennsylvania","postal_code":"16001-5908","country":"United States","longitude":"-79.8954362682927","latitude":"40.8587651585366","phone":"7242820831","website_url":"http://www.reclamationbrewing.com","updated_at":"2018-08-24T16:11:14.674Z","tag_list":[]},{"id":6245,"name":"Rivertowne Brewery - Production Facility","brewery_type":"micro","street":"5578 Old William Penn Hwy","city":"Export","state":"Pennsylvania","postal_code":"15632-9303","country":"United States","longitude":"-79.6373887951658","latitude":"40.4214737342474","phone":"7245192145","website_url":"http://www.myrivertowne.com","updated_at":"2018-08-24T16:11:23.639Z","tag_list":[]}]